[
  { "name": "Tirana", "region": "central", "lat": 41.3275, "lon": 19.8189, "organizers": 5, "participants": 13, "happyhour": true },
  { "name": "Durrës", "region": "coastal", "lat": 41.3231, "lon": 19.4414, "organizers": 3, "participants": 9, "happyhour": false },
  { "name": "Shijak", "region": "west", "lat": 41.3235, "lon": 19.6414, "organizers": 3, "participants": 4, "happyhour": false },
  { "name": "Shkodër", "region": "north", "lat": 42.0683, "lon": 19.5126, "organizers": 2, "participants": 9, "happyhour": false },
  { "name": "Elbasan", "region": "central", "lat": 41.1125, "lon": 20.0822, "organizers": 2, "participants": 6, "happyhour": false },
  { "name": "Vlorë", "region": "southwest", "lat": 40.4667, "lon": 19.4897, "organizers": 1, "participants": 8, "happyhour": false },
  { "name": "Fier", "region": "southwest", "lat": 40.7239, "lon": 19.5561, "organizers": 1, "participants": 7, "happyhour": false },
  { "name": "Berat", "region": "south", "lat": 40.7058, "lon": 19.9522, "organizers": 1, "participants": 6, "happyhour": false },
  { "name": "Korçë", "region": "southeast", "lat": 40.6150, "lon": 20.7828, "organizers": 1, "participants": 9, "happyhour": false },
  { "name": "Gjirokastër", "region": "south", "lat": 40.0758, "lon": 20.1389, "organizers": 1, "participants": 4, "happyhour": false },
  { "name": "Kukës", "region": "northeast", "lat": 42.0769, "lon": 20.4219, "organizers": 5, "participants": 10, "happyhour": false },
  { "name": "Lezhë", "region": "northwest", "lat": 41.7833, "lon": 19.6436, "organizers": 1, "participants": 6, "happyhour": false },
  { "name": "Lushnjë", "region": "central", "lat": 40.9419, "lon": 19.7050, "organizers": 1, "participants": 4, "happyhour": false },
  { "name": "Pogradec", "region": "east", "lat": 40.9000, "lon": 20.6500, "organizers": 1, "participants": 3, "happyhour": false },
  { "name": "Peshkopi", "region": "northeast", "lat": 41.6833, "lon": 20.4333, "organizers": 1, "participants": 3, "happyhour": false },
  { "name": "Tepelenë", "region": "south", "lat": 40.2958, "lon": 20.0183, "organizers": 1, "participants": 8, "happyhour": false },
  { "name": "Kavajë", "region": "central", "lat": 41.1856, "lon": 19.5622, "organizers": 1, "participants": 4, "happyhour": false },
  { "name": "Sarandë", "region": "south", "lat": 39.8733, "lon": 20.0053, "organizers": 1, "participants": 4, "happyhour": false },
  { "name": "Patos", "region": "southwest", "lat": 40.6833, "lon": 19.6500, "organizers": 1, "participants": 3, "happyhour": false },
  { "name": "Laç", "region": "northwest", "lat": 41.6350, "lon": 19.7108, "organizers": 1, "participants": 7, "happyhour": false },

  { "name": "Prishtina", "region": "central", "lat": 42.6629, "lon": 21.1655, "organizers": 4, "participants": 12, "happyhour": true },
  { "name": "Prizren", "region": "south", "lat": 42.2139, "lon": 20.7397, "organizers": 2, "participants": 6, "happyhour": false },
  { "name": "Peja", "region": "west", "lat": 42.6600, "lon": 20.2894, "organizers": 1, "participants": 7, "happyhour": false },
  { "name": "Gjilan", "region": "east", "lat": 42.4631, "lon": 21.4692, "organizers": 1, "participants": 6, "happyhour": false },
  { "name": "Ferizaj", "region": "southeast", "lat": 42.3706, "lon": 21.1553, "organizers": 1, "participants": 6, "happyhour": false },
  { "name": "Mitrovica", "region": "north", "lat": 42.8867, "lon": 20.8675, "organizers": 1, "participants": 5, "happyhour": false },
  { "name": "Gjakova", "region": "west", "lat": 42.3833, "lon": 20.4333, "organizers": 1, "participants": 5, "happyhour": false },
  { "name": "Vushtrri", "region": "north", "lat": 42.8231, "lon": 20.9675, "organizers": 1, "participants": 4, "happyhour": false },
  { "name": "Podujevë", "region": "northeast", "lat": 42.9131, "lon": 21.1922, "organizers": 1, "participants": 3, "happyhour": false },
  { "name": "Rahovec", "region": "west", "lat": 42.3908, "lon": 20.6544, "organizers": 1, "participants": 3, "happyhour": false },

  { "name": "Tetovë", "region": "northwest", "lat": 42.0106, "lon": 20.9714, "organizers": 8, "participants": 9, "happyhour": false },
  { "name": "Gostivar", "region": "west", "lat": 41.7960, "lon": 20.9083, "organizers": 1, "participants": 5, "happyhour": false },
  { "name": "Çair (Skopje)", "region": "north", "lat": 42.0167, "lon": 21.4333, "organizers": 1, "participants": 3, "happyhour": false },
  { "name": "Kumanovë", "region": "northeast", "lat": 42.1322, "lon": 21.7144, "organizers": 1, "participants": 3, "happyhour": false },
  { "name": "Strugë", "region": "southwest", "lat": 41.2394, "lon": 20.6783, "organizers": 1, "participants": 2, "happyhour": false }
]
